State,City,Turnout,Latitude,Longitude,"Accuracy Score","Accuracy Type",Number,Street,"Unit Type","Unit Number",City,State,County,Zip,Country,Source
Alabama,Birmingham,7500,33.456412,-86.801904,1,place,,,,,Birmingham,AL,"Jefferson County",35201,US,"TIGER/Line® dataset from the US Census Bureau"
Alabama,Huntsville,100,34.718428,-86.556439,1,place,,,,,Huntsville,AL,"Madison County",35801,US,"TIGER/Line® dataset from the US Census Bureau"
Alabama,Mentone,70,34.556856,-85.578584,1,place,,,,,Mentone,AL,"DeKalb County",35984,US,"TIGER/Line® dataset from the US Census Bureau"
Alabama,Mobile,950,30.701142,-88.103184,1,place,,,,,Mobile,AL,"Mobile County",36601,US,"TIGER/Line® dataset from the US Census Bureau"
Alaska,Adak,10,51.829438,-176.629994,1,place,,,,,Adak,AK,"Aleutians West Census Area",99546,US,"TIGER/Line® dataset from the US Census Bureau"
Alaska,Anchorage,3500,61.220018,-149.855702,1,place,,,,,Anchorage,AK,"Anchorage Municipality",99501,US,"TIGER/Line® dataset from the US Census Bureau"
Alaska,Bethel,60,60.79222,-161.75583,1,place,,,,,Bethel,AK,"Bethel Census Area",99559,US,"TIGER/Line® dataset from the US Census Bureau"
Alaska,Cordova,100,60.536166,-145.75335,1,place,,,,,Cordova,AK,"Valdez-Cordova Census Area",99574,US,"TIGER/Line® dataset from the US Census Bureau"
Alaska,Craig,25,55.513301,-133.117022,1,place,,,,,Craig,AK,,99921,US,"TIGER/Line® dataset from the US Census Bureau"
Alaska,Fairbanks,2000,67.094545,-149.336012,1,place,,,,,Fairbanks,AK,"Fairbanks North Star Borough",99701,US,"TIGER/Line® dataset from the US Census Bureau"
Alaska,Gustavus,100,58.41333,-135.73694,1,place,,,,,Gustavus,AK,,99826,US,"TIGER/Line® dataset from the US Census Bureau"
Alaska,Haines,150,59.312688,-135.681153,1,place,,,,,Haines,AK,"Haines Borough",99827,US,"TIGER/Line® dataset from the US Census Bureau"
Alaska,Homer,900,59.6425,-151.54833,1,place,,,,,Homer,AK,"Kenai Peninsula Borough",99603,US,"TIGER/Line® dataset from the US Census Bureau"
Alaska,Juneau,1000,58.373561,-134.523946,1,place,,,,,Juneau,AK,"Juneau City and Borough",99801,US,"TIGER/Line® dataset from the US Census Bureau"
Alaska,Ketchikan,220,55.400674,-131.67409,1,place,,,,,Ketchikan,AK,"Ketchikan Gateway Borough",99901,US,"TIGER/Line® dataset from the US Census Bureau"
Alaska,Kodiak,330,57.613209,-153.403556,1,place,,,,,Kodiak,AK,"Kodiak Island Borough",99615,US,"TIGER/Line® dataset from the US Census Bureau"
Alaska,Kotzebue,36,66.865256,-161.780844,1,place,,,,,Kotzebue,AK,"Northwest Arctic Borough",99752,US,"TIGER/Line® dataset from the US Census Bureau"
Alaska,"Moose Pass",15,60.5,-149.44469,1,place,,,,,"Moose Pass",AK,"Kenai Peninsula Borough",99631,US,"TIGER/Line® dataset from the US Census Bureau"
Alaska,Nome,100,64.50111,-165.40639,1,place,,,,,Nome,AK,"Nome Census Area",99762,US,"TIGER/Line® dataset from the US Census Bureau"
Alaska,Palmer,950,61.59972,-149.11278,1,place,,,,,Palmer,AK,"Matanuska-Susitna Borough",99645,US,"TIGER/Line® dataset from the US Census Bureau"
Alaska,Seldovia,45,59.449486,-151.700915,1,place,,,,,Seldovia,AK,"Kenai Peninsula Borough",99663,US,"TIGER/Line® dataset from the US Census Bureau"
Alaska,Seward,62,60.25281,-149.402123,1,place,,,,,Seward,AK,"Kenai Peninsula Borough",99664,US,"TIGER/Line® dataset from the US Census Bureau"
Alaska,Sitka,700,57.080818,-135.318348,1,place,,,,,Sitka,AK,"Sitka City and Borough",99835,US,"TIGER/Line® dataset from the US Census Bureau"
Alaska,Skagway,112,59.456753,-135.314852,1,place,,,,,Skagway,AK,,99840,US,"TIGER/Line® dataset from the US Census Bureau"
Alaska,Soldotna,261,60.48778,-151.05833,1,place,,,,,Soldotna,AK,"Kenai Peninsula Borough",99669,US,"TIGER/Line® dataset from the US Census Bureau"
Alaska,Talkeetna,80,62.280436,-149.715167,1,place,,,,,Talkeetna,AK,"Matanuska-Susitna Borough",99676,US,"TIGER/Line® dataset from the US Census Bureau"
Alaska,Unalakleet,38,63.87306,-160.78806,1,place,,,,,Unalakleet,AK,"Nome Census Area",99684,US,"TIGER/Line® dataset from the US Census Bureau"
Alaska,"Utqiagvik (Barrow)",60,71.29058,-156.78872,1,place,,,,,Barrow,AK,"North Slope Borough",99723,US,"TIGER/Line® dataset from the US Census Bureau"
Alaska,Valdez,120,61.13083,-146.34833,1,place,,,,,Valdez,AK,"Valdez-Cordova Census Area",99686,US,"TIGER/Line® dataset from the US Census Bureau"
Arizona,Flagstaff,1600,35.287661,-111.639303,1,place,,,,,Flagstaff,AZ,"Coconino County",86001,US,"TIGER/Line® dataset from the US Census Bureau"
Arizona,"Green Valley",400,31.838223,-110.955483,1,place,,,,,"Green Valley",AZ,"Pima County",85614,US,"TIGER/Line® dataset from the US Census Bureau"
Arizona,Phoenix,20000,33.703967,-112.351835,1,place,,,,,Phoenix,AZ,"Maricopa County",85001,US,"TIGER/Line® dataset from the US Census Bureau"
Arizona,Prescott,1200,34.591349,-112.426312,1,place,,,,,Prescott,AZ,"Yavapai County",86301,US,"TIGER/Line® dataset from the US Census Bureau"
Arizona,Tucson,15000,32.217975,-110.970869,1,place,,,,,Tucson,AZ,"Pima County",85701,US,"TIGER/Line® dataset from the US Census Bureau"
Arizona,Yuma,250,32.701461,-114.657232,1,place,,,,,Yuma,AZ,"Yuma County",85364,US,"TIGER/Line® dataset from the US Census Bureau"
Arkansas,Bentonville,500,36.347107,-94.223419,1,place,,,,,Bentonville,AR,"Benton County",72712,US,"TIGER/Line® dataset from the US Census Bureau"
Arkansas,Fayetteville,100,35.974602,-94.190997,1,place,,,,,Fayetteville,AR,"Washington County",72701,US,"TIGER/Line® dataset from the US Census Bureau"
Arkansas,"Little Rock",7000,34.746905,-92.280049,1,place,,,,,"Little Rock",AR,"Pulaski County",72201,US,"TIGER/Line® dataset from the US Census Bureau"
California,Albany,500,37.889525,-122.29828,1,place,,,,,Albany,CA,"Alameda County",94706,US,"TIGER/Line® dataset from the US Census Bureau"
California,Avalon,44,33.34281,-118.32785,1,place,,,,,Avalon,CA,"Los Angeles County",90704,US,"TIGER/Line® dataset from the US Census Bureau"
California,Berkeley,600,37.860576,-122.29673,1,place,,,,,Berkeley,CA,"Alameda County",94701,US,"TIGER/Line® dataset from the US Census Bureau"
California,"Beverly Hills",275,33.786594,-118.298662,1,place,,,,,"Beverly Hills",CA,"Los Angeles County",90209,US,"TIGER/Line® dataset from the US Census Bureau"
California,Bishop,580,37.491769,-118.389367,1,place,,,,,Bishop,CA,"Inyo County",93514,US,"TIGER/Line® dataset from the US Census Bureau"
California,"Borrego Springs",145,33.23943,-116.35607,1,place,,,,,"Borrego Springs",CA,"San Diego County",92004,US,"TIGER/Line® dataset from the US Census Bureau"
California,Burbank,300,34.200993,-118.292773,1,place,,,,,Burbank,CA,"Los Angeles County",91501,US,"TIGER/Line® dataset from the US Census Bureau"
California,Chico,300,39.746159,-121.840083,1,place,,,,,Chico,CA,"Butte County",95926,US,"TIGER/Line® dataset from the US Census Bureau"
California,Compton,0,33.874815,-118.240208,1,place,,,,,Compton,CA,"Los Angeles County",90220,US,"TIGER/Line® dataset from the US Census Bureau"
California,"El Centro",100,32.770275,-115.598602,1,place,,,,,"El Centro",CA,"Imperial County",92243,US,"TIGER/Line® dataset from the US Census Bureau"
California,Encinitas,50,33.016928,-116.846046,1,place,,,,,Encinitas,CA,"San Diego County",92023,US,"TIGER/Line® dataset from the US Census Bureau"
California,Eureka,6500,40.798802,-124.15192,1,place,,,,,Eureka,CA,"Humboldt County",95501,US,"TIGER/Line® dataset from the US Census Bureau"
California,Fairfax,42,37.981723,-122.607791,1,place,,,,,Fairfax,CA,"Marin County",94930,US,"TIGER/Line® dataset from the US Census Bureau"
California,"Fort Bragg",2650,39.4,-123.81667,1,place,,,,,"Fort Bragg",CA,"Mendocino County",95437,US,"TIGER/Line® dataset from the US Census Bureau"
California,Fresno,2000,36.8411,-119.801015,1,place,,,,,Fresno,CA,"Fresno County",93650,US,"TIGER/Line® dataset from the US Census Bureau"
California,Gualala,300,38.836933,-123.527323,1,place,,,,,Gualala,CA,"Mendocino County",95445,US,"TIGER/Line® dataset from the US Census Bureau"
California,Hemet,100,33.667301,-116.963506,1,place,,,,,Hemet,CA,"Riverside County",92543,US,"TIGER/Line® dataset from the US Census Bureau"
California,"Kings Beach",650,39.24886,-120.0202,1,place,,,,,"Kings Beach",CA,"Placer County",96143,US,"TIGER/Line® dataset from the US Census Bureau"
California,"Laguna Beach",250,33.520941,-117.741315,1,place,,,,,"Laguna Beach",CA,"Orange County",92651,US,"TIGER/Line® dataset from the US Census Bureau"
California,Laytonville,0,39.6723,-123.49375,1,place,,,,,Laytonville,CA,"Mendocino County",95454,US,"TIGER/Line® dataset from the US Census Bureau"
California,Lompoc,300,34.629464,-120.336594,1,place,,,,,Lompoc,CA,"Santa Barbara County",93436,US,"TIGER/Line® dataset from the US Census Bureau"
California,"Long Beach",200,33.804309,-118.200957,1,place,,,,,"Long Beach",CA,"Los Angeles County",90801,US,"TIGER/Line® dataset from the US Census Bureau"
California,"Los Angeles",750000,33.973951,-118.248405,1,place,,,,,"Los Angeles",CA,"Los Angeles County",90001,US,"TIGER/Line® dataset from the US Census Bureau"
California,Modesto,1000,37.669463,-121.016796,1,place,,,,,Modesto,CA,"Stanislaus County",95350,US,"TIGER/Line® dataset from the US Census Bureau"
California,"Monterey Bay",1500,36.57485,-121.840727,1,place,,,,,Monterey,CA,"Monterey County",93940,US,"TIGER/Line® dataset from the US Census Bureau"
California,"Mt. Shasta",400,41.31583,-122.31611,1,place,,,,,"Mount Shasta",CA,"Siskiyou County",96067,US,"TIGER/Line® dataset from the US Census Bureau"
California,Napa,3000,38.442011,-122.23832,1,place,,,,,Napa,CA,"Napa County",94558,US,"TIGER/Line® dataset from the US Census Bureau"
California,"Nevada City",100,39.299606,-120.887965,1,place,,,,,"Nevada City",CA,"Nevada County",95959,US,"TIGER/Line® dataset from the US Census Bureau"
California,Oakhurst,200,37.37586,-119.65238,1,place,,,,,Oakhurst,CA,"Madera County",93644,US,"TIGER/Line® dataset from the US Census Bureau"
California,Oakland,100000,37.786027,-122.223779,1,place,,,,,Oakland,CA,"Alameda County",94601,US,"TIGER/Line® dataset from the US Census Bureau"
California,Ontario,200,34.05936,-117.6203,1,place,,,,,Ontario,CA,"San Bernardino County",91758,US,"TIGER/Line® dataset from the US Census Bureau"
California,"Palm Desert",1000,33.76437,-116.339766,1,place,,,,,"Palm Desert",CA,"Riverside County",92211,US,"TIGER/Line® dataset from the US Census Bureau"
California,Palmdale,24,34.408383,-118.123597,1,place,,,,,Palmdale,CA,"Los Angeles County",93550,US,"TIGER/Line® dataset from the US Census Bureau"
California,Pasadena,500,33.786594,-118.298662,1,place,,,,,Pasadena,CA,"Los Angeles County",91050,US,"TIGER/Line® dataset from the US Census Bureau"
California,Redding,300,40.600342,-122.455016,1,place,,,,,Redding,CA,"Shasta County",96001,US,"TIGER/Line® dataset from the US Census Bureau"
California,"Redondo Beach",1800,33.830006,-118.387124,1,place,,,,,"Redondo Beach",CA,"Los Angeles County",90277,US,"TIGER/Line® dataset from the US Census Bureau"
California,"Redwood City",5000,37.381144,-122.334825,1,place,,,,,"Redwood City",CA,"San Mateo County",94059,US,"TIGER/Line® dataset from the US Census Bureau"
California,Ridgecrest,190,35.606509,-117.683472,1,place,,,,,Ridgecrest,CA,"Kern County",93555,US,"TIGER/Line® dataset from the US Census Bureau"
California,Riverside,4000,33.99504,-117.373184,1,place,,,,,Riverside,CA,"Riverside County",92501,US,"TIGER/Line® dataset from the US Census Bureau"
California,Sacramento,20000,38.380456,-121.555406,1,place,,,,,Sacramento,CA,"Sacramento County",94203,US,"TIGER/Line® dataset from the US Census Bureau"
California,"San Bernardino",80,34.104794,-117.29215,1,place,,,,,"San Bernardino",CA,"San Bernardino County",92401,US,"TIGER/Line® dataset from the US Census Bureau"
California,"San Clemente",300,33.42362,-117.606843,1,place,,,,,"San Clemente",CA,"Orange County",92672,US,"TIGER/Line® dataset from the US Census Bureau"
California,"San Diego",45000,32.724103,-117.170912,1,place,,,,,"San Diego",CA,"San Diego County",92101,US,"TIGER/Line® dataset from the US Census Bureau"
California,"San Francisco",125000,37.776646,-122.417481,1,place,,,,,"San Francisco",CA,"San Francisco County",94101,US,"TIGER/Line® dataset from the US Census Bureau"
California,"San Jose",25000,37.189396,-121.705327,1,place,,,,,"San Jose",CA,"Santa Clara County",95101,US,"TIGER/Line® dataset from the US Census Bureau"
California,"San Luis Obispo",8500,35.265573,-120.62122,1,place,,,,,"San Luis Obispo",CA,"San Luis Obispo County",93401,US,"TIGER/Line® dataset from the US Census Bureau"
California,"San Marcos",6500,33.170778,-117.158674,1,place,,,,,"San Marcos",CA,"San Diego County",92069,US,"TIGER/Line® dataset from the US Census Bureau"
California,"Santa Ana",22500,33.74822,-117.858473,1,place,,,,,"Santa Ana",CA,"Orange County",92701,US,"TIGER/Line® dataset from the US Census Bureau"
California,"Santa Barbara",6000,34.421897,-119.707135,1,place,,,,,"Santa Barbara",CA,"Santa Barbara County",93101,US,"TIGER/Line® dataset from the US Census Bureau"
California,"Santa Cruz",15000,37.052748,-122.111126,1,place,,,,,"Santa Cruz",CA,"Santa Cruz County",95060,US,"TIGER/Line® dataset from the US Census Bureau"
California,"Santa Rosa",5000,38.450412,-122.783159,1,place,,,,,"Santa Rosa",CA,"Sonoma County",95401,US,"TIGER/Line® dataset from the US Census Bureau"
California,Seaside,1750,36.61107,-121.85162,1,place,,,,,Seaside,CA,"Monterey County",93955,US,"TIGER/Line® dataset from the US Census Bureau"
California,Sonoma,3000,38.255943,-122.476819,1,place,,,,,Sonoma,CA,"Sonoma County",95476,US,"TIGER/Line® dataset from the US Census Bureau"
California,"South Lake Tahoe",600,38.927507,-120.039632,1,place,,,,,"South Lake Tahoe",CA,"El Dorado County",96150,US,"TIGER/Line® dataset from the US Census Bureau"
California,Ukiah,2000,39.15017,-123.20778,1,place,,,,,Ukiah,CA,"Mendocino County",95482,US,"TIGER/Line® dataset from the US Census Bureau"
California,Vallejo,40,38.18735,-122.224074,1,place,,,,,Vallejo,CA,"Solano County",94589,US,"TIGER/Line® dataset from the US Census Bureau"
California,Ventura,2500,34.330829,-119.358352,1,place,,,,,Ventura,CA,"Ventura County",93001,US,"TIGER/Line® dataset from the US Census Bureau"
California,Visalia,500,36.303793,-119.375646,1,place,,,,,Visalia,CA,"Tulare County",93277,US,"TIGER/Line® dataset from the US Census Bureau"
California,"Walnut Creek",10000,37.873343,-122.070625,1,place,,,,,"Walnut Creek",CA,"Contra Costa County",94595,US,"TIGER/Line® dataset from the US Census Bureau"
California,Watsonville,400,36.98025,-121.74696,1,place,,,,,Watsonville,CA,"Santa Cruz County",95076,US,"TIGER/Line® dataset from the US Census Bureau"
California,Willits,60,39.525958,-123.36573,1,place,,,,,Willits,CA,"Mendocino County",95490,US,"TIGER/Line® dataset from the US Census Bureau"
California,"Yucca Valley",100,34.185894,-116.432416,1,place,,,,,"Yucca Valley",CA,"San Bernardino County",92284,US,"TIGER/Line® dataset from the US Census Bureau"
Colorado,Alamosa,350,37.479933,-105.790967,1,place,,,,,Alamosa,CO,"Alamosa County",81101,US,"TIGER/Line® dataset from the US Census Bureau"
Colorado,Aspen,750,39.169324,-106.776744,1,place,,,,,Aspen,CO,"Pitkin County",81611,US,"TIGER/Line® dataset from the US Census Bureau"
Colorado,Broomfield,200,39.930782,-105.074287,0.9,place,,,,,Broomfield,CO,"Adams County",80020,US,"TIGER/Line® dataset from the US Census Bureau"
Colorado,Carbondale,250,39.40221,-107.21116,1,place,,,,,Carbondale,CO,"Garfield County",81623,US,"TIGER/Line® dataset from the US Census Bureau"
Colorado,"Colorado Springs",7000,38.828893,-104.809929,1,place,,,,,"Colorado Springs",CO,"El Paso County",80903,US,"TIGER/Line® dataset from the US Census Bureau"
Colorado,Cortez,452,37.373594,-108.662826,1,place,,,,,Cortez,CO,"Montezuma County",81321,US,"TIGER/Line® dataset from the US Census Bureau"
Colorado,"Crested Butte",375,38.880713,-106.94868,1,place,,,,,"Crested Butte",CO,"Gunnison County",81224,US,"TIGER/Line® dataset from the US Census Bureau"
Colorado,Denver,150000,39.760189,-104.996553,1,place,,,,,Denver,CO,"Denver County",80202,US,"TIGER/Line® dataset from the US Census Bureau"
Colorado,Durango,100,37.318364,-107.880367,1,place,,,,,Durango,CO,"La Plata County",81301,US,"TIGER/Line® dataset from the US Census Bureau"
Colorado,"Glenwood Springs",100,39.601448,-107.304314,1,place,,,,,"Glenwood Springs",CO,"Garfield County",81601,US,"TIGER/Line® dataset from the US Census Bureau"
Colorado,"Grand Junction",1000,39.069019,-108.583126,1,place,,,,,"Grand Junction",CO,"Mesa County",81501,US,"TIGER/Line® dataset from the US Census Bureau"
Colorado,Lafayette,89,40.026334,-105.104899,1,place,,,,,Lafayette,CO,"Boulder County",80026,US,"TIGER/Line® dataset from the US Census Bureau"
Colorado,Ridgway,50,38.177464,-107.72736,1,place,,,,,Ridgway,CO,"Ouray County",81432,US,"TIGER/Line® dataset from the US Census Bureau"
Colorado,Silverton,33,37.848391,-107.680381,1,place,,,,,Silverton,CO,"San Juan County",81433,US,"TIGER/Line® dataset from the US Census Bureau"
Colorado,"Steamboat Springs",1000,40.486391,-106.829354,1,place,,,,,"Steamboat Springs",CO,"Routt County",80477,US,"TIGER/Line® dataset from the US Census Bureau"
Colorado,Telluride,600,37.93749,-107.81229,1,place,,,,,Telluride,CO,"San Miguel County",81435,US,"TIGER/Line® dataset from the US Census Bureau"
Connecticut,"East Haddam",300,41.475478,-72.389729,1,place,,,,,"East Haddam",CT,"Middlesex County",06423,US,"TIGER/Line® dataset from the US Census Bureau"
Connecticut,Hartford,10000,41.78007,-72.677099,1,place,,,,,Hartford,CT,"Hartford County",06101,US,"TIGER/Line® dataset from the US Census Bureau"
Connecticut,"New Haven",200,41.365709,-72.927507,1,place,,,,,"New Haven",CT,"New Haven County",06501,US,"TIGER/Line® dataset from the US Census Bureau"
Connecticut,"Old Saybrook",1000,41.300448,-72.389129,1,place,,,,,"Old Saybrook",CT,"Middlesex County",06475,US,"TIGER/Line® dataset from the US Census Bureau"
Connecticut,Salisbury,500,42.00579,-73.399336,1,place,,,,,Salisbury,CT,"Litchfield County",06068,US,"TIGER/Line® dataset from the US Census Bureau"
Connecticut,Stamford,5000,41.054082,-73.536216,1,place,,,,,Stamford,CT,"Fairfield County",06901,US,"TIGER/Line® dataset from the US Census Bureau"
Delaware,Lewes,250,38.77456,-75.13935,1,place,,,,,Lewes,DE,"Sussex County",19958,US,"TIGER/Line® dataset from the US Census Bureau"
Delaware,Newark,1000,39.614737,-75.701277,1,place,,,,,Newark,DE,"New Castle County",19702,US,"TIGER/Line® dataset from the US Census Bureau"
Florida,"Boca Raton",120,26.375954,-80.10717,1,place,,,,,"Boca Raton",FL,"Palm Beach County",33427,US,"TIGER/Line® dataset from the US Census Bureau"
Florida,"Daytona Beach",100,29.194,-81.047652,1,place,,,,,"Daytona Beach",FL,"Volusia County",32114,US,"TIGER/Line® dataset from the US Census Bureau"
Florida,"Fernandina Beach",1150,30.609692,-81.49172,1,place,,,,,"Fernandina Beach",FL,"Nassau County",32034,US,"TIGER/Line® dataset from the US Census Bureau"
Florida,Gainesville,1500,29.648993,-82.324515,1,place,,,,,Gainesville,FL,"Alachua County",32601,US,"TIGER/Line® dataset from the US Census Bureau"
Florida,Jacksonville,2500,30.337538,-81.768622,1,place,,,,,Jacksonville,FL,"Duval County",32099,US,"TIGER/Line® dataset from the US Census Bureau"
Florida,"Key West",3200,24.557053,-81.780989,1,place,,,,,"Key West",FL,"Monroe County",33040,US,"TIGER/Line® dataset from the US Census Bureau"
Florida,Melbourne,500,28.079357,-80.623618,1,place,,,,,Melbourne,FL,"Brevard County",32901,US,"TIGER/Line® dataset from the US Census Bureau"
Florida,Miami,10000,25.558428,-80.458168,1,place,,,,,Miami,FL,"Miami-Dade County",33231,US,"TIGER/Line® dataset from the US Census Bureau"
Florida,"Miami Beach",0,25.558428,-80.458168,1,place,,,,,"Miami Beach",FL,"Miami-Dade County",33239,US,"TIGER/Line® dataset from the US Census Bureau"
Florida,Naples,2500,26.032137,-81.761821,1,place,,,,,Naples,FL,"Collier County",34101,US,"TIGER/Line® dataset from the US Census Bureau"
Florida,"New Smyrna Beach",1000,28.951931,-81.033705,1,place,,,,,"New Smyrna Beach",FL,"Volusia County",32168,US,"TIGER/Line® dataset from the US Census Bureau"
Florida,Ocala,300,29.198907,-82.087425,1,place,,,,,Ocala,FL,"Marion County",34470,US,"TIGER/Line® dataset from the US Census Bureau"
Florida,Orlando,1000,28.545179,-81.373291,1,place,,,,,Orlando,FL,"Orange County",32801,US,"TIGER/Line® dataset from the US Census Bureau"
Florida,"Panama City",500,30.159737,-85.660922,1,place,,,,,"Panama City",FL,"Bay County",32401,US,"TIGER/Line® dataset from the US Census Bureau"
Florida,Pensacola,2000,30.428781,-87.222516,1,place,,,,,Pensacola,FL,"Escambia County",32501,US,"TIGER/Line® dataset from the US Census Bureau"
Florida,Sarasota,10000,27.335023,-82.537169,1,place,,,,,Sarasota,FL,"Sarasota County",34230,US,"TIGER/Line® dataset from the US Census Bureau"
Florida,"St. Augustine",2000,29.918235,-81.367087,1,place,,,,,"Saint Augustine",FL,"St. Johns County",32084,US,"TIGER/Line® dataset from the US Census Bureau"
Florida,"St. Petersburg",20000,27.775654,-82.64092,1,place,,,,,"Saint Petersburg",FL,"Pinellas County",33701,US,"TIGER/Line® dataset from the US Census Bureau"
Florida,Tallahassee,14000,30.427753,-84.258472,1,place,,,,,Tallahassee,FL,"Leon County",32301,US,"TIGER/Line® dataset from the US Census Bureau"
Florida,"West Palm Beach",6000,26.715844,-80.070249,1,place,,,,,"West Palm Beach",FL,"Palm Beach County",33401,US,"TIGER/Line® dataset from the US Census Bureau"
Georgia,Athens,700,33.992902,-83.353697,1,place,,,,,Athens,GA,"Clarke County",30601,US,"TIGER/Line® dataset from the US Census Bureau"
Georgia,Atlanta,60000,33.844371,-84.47405,1,place,,,,,Atlanta,GA,"Fulton County",30301,US,"TIGER/Line® dataset from the US Census Bureau"
Georgia,Augusta,600,33.456687,-81.969184,1,place,,,,,Augusta,GA,"Richmond County",30901,US,"TIGER/Line® dataset from the US Census Bureau"
Georgia,Savannah,1000,32.074679,-81.088261,1,place,,,,,Savannah,GA,"Chatham County",31401,US,"TIGER/Line® dataset from the US Census Bureau"
Georgia,Statesboro,200,32.425,-81.784956,1,place,,,,,Statesboro,GA,"Bulloch County",30458,US,"TIGER/Line® dataset from the US Census Bureau"
Georgia,Zebulon,35,33.077371,-84.321736,1,place,,,,,Zebulon,GA,"Pike County",30295,US,"TIGER/Line® dataset from the US Census Bureau"
Guam,Hagåtña,100,0,0,0,,,,,,,,,,,
Hawaii,Hilo,1750,19.564519,-155.26203,1,place,,,,,Hilo,HI,"Hawaii County",96720,US,"TIGER/Line® dataset from the US Census Bureau"
Hawaii,"Honolulu (Oahu)",5500,24.859832,-168.021815,1,place,,,,,Honolulu,HI,"Honolulu County",96801,US,"TIGER/Line® dataset from the US Census Bureau"
Hawaii,Kahului,1750,20.883783,-156.462641,1,place,,,,,Kahului,HI,"Maui County",96732,US,"TIGER/Line® dataset from the US Census Bureau"
Hawaii,Kawaihae,50,22.103611,-159.349444,0.8,place,,,,,Kawaihau,HI,"Kauai County",96746,US,"TIGER/Line® dataset from the US Census Bureau"
Hawaii,Kona,3250,21.463,-158.06385,0.67,place,,,,,Kunia,HI,"Honolulu County",96759,US,"TIGER/Line® dataset from the US Census Bureau"
Hawaii,"Lihue (Kauai)",1500,21.97583,-159.35479,1,place,,,,,Lihue,HI,"Kauai County",96766,US,"TIGER/Line® dataset from the US Census Bureau"
Idaho,Boise,5000,43.603768,-116.272921,1,place,,,,,Boise,ID,"Ada County",83701,US,"TIGER/Line® dataset from the US Census Bureau"
Idaho,Driggs,1000,43.713752,-111.158402,1,place,,,,,Driggs,ID,"Teton County",83422,US,"TIGER/Line® dataset from the US Census Bureau"
Idaho,"Idaho Falls",500,43.54241,-111.877936,1,place,,,,,"Idaho Falls",ID,"Bonneville County",83401,US,"TIGER/Line® dataset from the US Census Bureau"
Idaho,Ketchum,1150,43.669159,-114.485781,1,place,,,,,Ketchum,ID,"Blaine County",83340,US,"TIGER/Line® dataset from the US Census Bureau"
Idaho,Moscow,2500,46.735334,-116.870147,1,place,,,,,Moscow,ID,"Latah County",83843,US,"TIGER/Line® dataset from the US Census Bureau"
Idaho,Pocatello,1100,42.904933,-112.380079,1,place,,,,,Pocatello,ID,"Bannock County",83201,US,"TIGER/Line® dataset from the US Census Bureau"
Idaho,Sandpoint,900,48.299486,-116.553968,1,place,,,,,Sandpoint,ID,"Bonner County",83864,US,"TIGER/Line® dataset from the US Census Bureau"
Idaho,Stanley,30,44.371442,-114.856089,1,place,,,,,Stanley,ID,"Custer County",83278,US,"TIGER/Line® dataset from the US Census Bureau"
Illinois,Carbondale,900,37.739004,-89.209109,1,place,,,,,Carbondale,IL,"Jackson County",62901,US,"TIGER/Line® dataset from the US Census Bureau"
Illinois,Champaign-Urbana,5000,39.910198,-87.938156,0.9,street_center,,Champaign,,,Broadlands,IL,"Champaign County",61816,US,"TIGER/Line® dataset from the US Census Bureau"
Illinois,Chicago,250000,41.88531,-87.62213,1,place,,,,,Chicago,IL,"Cook County",60601,US,"TIGER/Line® dataset from the US Census Bureau"
Illinois,Elgin,600,42.034492,-88.238396,1,place,,,,,Elgin,IL,"Kane County",60120,US,"TIGER/Line® dataset from the US Census Bureau"
Illinois,Galesburg,300,40.944559,-90.385282,1,place,,,,,Galesburg,IL,"Knox County",61401,US,"TIGER/Line® dataset from the US Census Bureau"
Illinois,Maryville,45,38.713829,-89.965751,1,place,,,,,Maryville,IL,"Madison County",62062,US,"TIGER/Line® dataset from the US Census Bureau"
Illinois,Peoria,1750,40.693137,-89.589847,1,place,,,,,Peoria,IL,"Peoria County",61601,US,"TIGER/Line® dataset from the US Census Bureau"
Illinois,Rockford,1000,42.33342,-89.157198,1,place,,,,,Rockford,IL,"Winnebago County",61101,US,"TIGER/Line® dataset from the US Census Bureau"
Illinois,Springfield,1000,39.800698,-89.648801,1,place,,,,,Springfield,IL,"Sangamon County",62701,US,"TIGER/Line® dataset from the US Census Bureau"
Indiana,Evansville,200,37.997128,-87.574963,1,place,,,,,Evansville,IN,"Vanderburgh County",47701,US,"TIGER/Line® dataset from the US Census Bureau"
Indiana,"Fort Wayne",1000,41.093763,-85.070713,1,place,,,,,"Fort Wayne",IN,"Allen County",46801,US,"TIGER/Line® dataset from the US Census Bureau"
Indiana,Indianapolis,4750,39.775092,-86.13216,1,place,,,,,Indianapolis,IN,"Marion County",46201,US,"TIGER/Line® dataset from the US Census Bureau"
Indiana,Lafayette,800,40.417778,-86.889633,1,place,,,,,Lafayette,IN,"Tippecanoe County",47901,US,"TIGER/Line® dataset from the US Census Bureau"
Indiana,Paoli,67,38.513132,-86.459473,1,place,,,,,Paoli,IN,"Orange County",47454,US,"TIGER/Line® dataset from the US Census Bureau"
Indiana,"South Bend",1000,41.673383,-86.251654,1,place,,,,,"South Bend",IN,"St. Joseph County",46601,US,"TIGER/Line® dataset from the US Census Bureau"
Indiana,"St. Mary of the Woods",200,39.514586,-87.459799,0.9,place,,,,,"Saint Mary Of The Woods",IN,"Vigo County",47876,US,"TIGER/Line® dataset from the US Census Bureau"
Indiana,"Terre Haute",200,39.433602,-87.410094,1,place,,,,,"Terre Haute",IN,"Vigo County",47801,US,"TIGER/Line® dataset from the US Census Bureau"
Indiana,Valparaiso,380,41.454731,-87.065565,1,place,,,,,Valparaiso,IN,"Porter County",46383,US,"TIGER/Line® dataset from the US Census Bureau"
Iowa,Bettendorf,100,41.52448,-90.51569,1,place,,,,,Bettendorf,IA,"Scott County",52722,US,"TIGER/Line® dataset from the US Census Bureau"
Iowa,Decorah,900,43.294252,-91.789582,1,place,,,,,Decorah,IA,"Winneshiek County",52101,US,"TIGER/Line® dataset from the US Census Bureau"
Iowa,"Des Moines",26000,41.672687,-93.572173,1,place,,,,,"Des Moines",IA,"Polk County",50301,US,"TIGER/Line® dataset from the US Census Bureau"
Iowa,Dubuque,400,42.545412,-90.6963,1,place,,,,,Dubuque,IA,"Dubuque County",52001,US,"TIGER/Line® dataset from the US Census Bureau"
Iowa,"Iowa City",1000,41.634209,-91.49905,1,place,,,,,"Iowa City",IA,"Johnson County",52240,US,"TIGER/Line® dataset from the US Census Bureau"
Kansas,Topeka,4200,38.988075,-95.780662,1,place,,,,,Topeka,KS,"Shawnee County",66601,US,"TIGER/Line® dataset from the US Census Bureau"
Kansas,Wichita,3000,37.651974,-97.258997,1,place,,,,,Wichita,KS,"Sedgwick County",67201,US,"TIGER/Line® dataset from the US Census Bureau"
Kentucky,Lexington,5000,38.037847,-84.61645,1,place,,,,,Lexington,KY,"Fayette County",40501,US,"TIGER/Line® dataset from the US Census Bureau"
Kentucky,Louisville,5000,38.188962,-85.676819,1,place,,,,,Louisville,KY,"Jefferson County",40201,US,"TIGER/Line® dataset from the US Census Bureau"
Kentucky,Murray,700,36.625349,-88.279562,1,place,,,,,Murray,KY,"Calloway County",42071,US,"TIGER/Line® dataset from the US Census Bureau"
Kentucky,Pikeville,100,37.514701,-82.513615,1,place,,,,,Pikeville,KY,"Pike County",41501,US,"TIGER/Line® dataset from the US Census Bureau"
Louisiana,Monroe,0,32.502833,-92.094583,1,place,,,,,Monroe,LA,"Ouachita Parish",71201,US,"TIGER/Line® dataset from the US Census Bureau"
Louisiana,"New Orleans",12500,29.958304,-90.077,1,place,,,,,"New Orleans",LA,"Orleans Parish",70112,US,"TIGER/Line® dataset from the US Census Bureau"
Louisiana,Shreveport,100,32.498202,-93.750228,1,place,,,,,Shreveport,LA,"Caddo Parish",71101,US,"TIGER/Line® dataset from the US Census Bureau"
Maine,Augusta,10000,44.351642,-69.803773,1,place,,,,,Augusta,ME,"Kennebec County",04330,US,"TIGER/Line® dataset from the US Census Bureau"
Maine,Brunswick,300,43.91172,-69.9405,1,place,,,,,Brunswick,ME,"Cumberland County",04011,US,"TIGER/Line® dataset from the US Census Bureau"
Maine,Eastport,111,44.91667,-67,1,place,,,,,Eastport,ME,"Washington County",04631,US,"TIGER/Line® dataset from the US Census Bureau"
Maine,Ellsworth,60,44.477935,-68.356311,1,place,,,,,Ellsworth,ME,"Hancock County",04605,US,"TIGER/Line® dataset from the US Census Bureau"
Maine,"Fort Kent",0,47.26484,-68.58101,1,place,,,,,"Fort Kent",ME,"Aroostook County",04743,US,"TIGER/Line® dataset from the US Census Bureau"
Maine,Gouldsboro,35,44.483471,-68.090339,1,place,,,,,Gouldsboro,ME,"Hancock County",04607,US,"TIGER/Line® dataset from the US Census Bureau"
Maine,Kennebunk,100,43.38409,-70.54419,1,place,,,,,Kennebunk,ME,"York County",04043,US,"TIGER/Line® dataset from the US Census Bureau"
Maine,Lubec,100,44.904288,-67.040767,1,place,,,,,Lubec,ME,"Washington County",04652,US,"TIGER/Line® dataset from the US Census Bureau"
Maine,"Monhegan Island",22,43.76231,-69.32032,1,place,,,,,Monhegan,ME,"Lincoln County",04852,US,"TIGER/Line® dataset from the US Census Bureau"
Maine,Portland,10000,43.658784,-70.262393,1,place,,,,,Portland,ME,"Cumberland County",04101,US,"TIGER/Line® dataset from the US Census Bureau"
Maine,Sanford,0,43.44007,-70.78015,1,place,,,,,Sanford,ME,"York County",04073,US,"TIGER/Line® dataset from the US Census Bureau"
Maine,Surry,0,44.49591,-68.50169,1,place,,,,,Surry,ME,"Hancock County",04684,US,"TIGER/Line® dataset from the US Census Bureau"
Maine,"Tenants Harbor",55,43.963129,-69.213329,1,place,,,,,"Tenants Harbor",ME,"Knox County",04860,US,"TIGER/Line® dataset from the US Census Bureau"
Maine,Vinalhaven,88,44.08511,-68.841965,1,place,,,,,Vinalhaven,ME,"Knox County",04863,US,"TIGER/Line® dataset from the US Census Bureau"
Maryland,Accident,54,39.6287,-79.31976,1,place,,,,,Accident,MD,"Garrett County",21520,US,"TIGER/Line® dataset from the US Census Bureau"
Maryland,Annapolis,1600,38.98775,-76.5528,1,place,,,,,Annapolis,MD,"Anne Arundel County",21401,US,"TIGER/Line® dataset from the US Census Bureau"
Maryland,Baltimore,5000,39.296536,-76.623489,1,place,,,,,Baltimore,MD,"Baltimore city",21201,US,"TIGER/Line® dataset from the US Census Bureau"
Maryland,Frederick,1000,39.443551,-77.33294,1,place,,,,,Frederick,MD,"Frederick County",21701,US,"TIGER/Line® dataset from the US Census Bureau"
Maryland,"Ocean City",100,38.350536,-75.12888,1,place,,,,,"Ocean City",MD,"Worcester County",21842,US,"TIGER/Line® dataset from the US Census Bureau"
Maryland,"St. Mary's City",10,38.18707,-76.4344,1,place,,,,,"Saint Marys City",MD,"St. Mary's County",20686,US,"TIGER/Line® dataset from the US Census Bureau"
Massachusetts,Boston,162500,42.370567,-71.026964,1,place,,,,,Boston,MA,"Suffolk County",02101,US,"TIGER/Line® dataset from the US Census Bureau"
Massachusetts,Falmouth,1500,41.57419,-70.628285,1,place,,,,,Falmouth,MA,"Barnstable County",02540,US,"TIGER/Line® dataset from the US Census Bureau"
Massachusetts,Greenfield,2000,42.601335,-72.623619,1,place,,,,,Greenfield,MA,"Franklin County",01301,US,"TIGER/Line® dataset from the US Census Bureau"
Massachusetts,"Martha's Vineyard",100,41.458594,-70.61592,0.67,place,,,,,"Vineyard Haven",MA,"Dukes County",02568,US,"TIGER/Line® dataset from the US Census Bureau"
Massachusetts,Nantucket,400,41.287647,-70.08665,1,place,,,,,Nantucket,MA,"Nantucket County",02554,US,"TIGER/Line® dataset from the US Census Bureau"
Massachusetts,Northampton,1000,42.321488,-72.630588,1,place,,,,,Northampton,MA,"Hampshire County",01060,US,"TIGER/Line® dataset from the US Census Bureau"
Massachusetts,Pittsfield,1640,42.479475,-73.24807,1,place,,,,,Pittsfield,MA,"Berkshire County",01201,US,"TIGER/Line® dataset from the US Census Bureau"
Massachusetts,Provincetown,300,42.05844,-70.17864,1,place,,,,,Provincetown,MA,"Barnstable County",02657,US,"TIGER/Line® dataset from the US Census Bureau"
Massachusetts,Wellfleet,113,41.93761,-70.0328,1,place,,,,,Wellfleet,MA,"Barnstable County",02667,US,"TIGER/Line® dataset from the US Census Bureau"
Massachusetts,Worcester,0,42.265275,-71.879415,1,place,,,,,Worcester,MA,"Worcester County",01601,US,"TIGER/Line® dataset from the US Census Bureau"
Michigan,Adrian,140,41.889943,-84.065892,1,place,,,,,Adrian,MI,"Lenawee County",49221,US,"TIGER/Line® dataset from the US Census Bureau"
Michigan,"Ann Arbor",11000,42.266638,-83.849042,1,place,,,,,"Ann Arbor",MI,"Washtenaw County",48103,US,"TIGER/Line® dataset from the US Census Bureau"
Michigan,Brighton,300,42.570452,-83.74763,1,place,,,,,Brighton,MI,"Livingston County",48114,US,"TIGER/Line® dataset from the US Census Bureau"
Michigan,Clare,24,43.81947,-84.76863,1,place,,,,,Clare,MI,"Clare County",48617,US,"TIGER/Line® dataset from the US Census Bureau"
Michigan,Detroit,4000,42.347021,-83.060184,1,place,,,,,Detroit,MI,"Wayne County",48201,US,"TIGER/Line® dataset from the US Census Bureau"
Michigan,Douglas-Saugatuck,1850,42.645611,-86.165451,1,place,,,,,Saugatuck,MI,"Allegan County",49453,US,"TIGER/Line® dataset from the US Census Bureau"
Michigan,"Grand Rapids",100,42.984226,-85.629101,1,place,,,,,"Grand Rapids",MI,"Kent County",49501,US,"TIGER/Line® dataset from the US Census Bureau"
Michigan,"Grosse Pointe",1222,42.382395,-82.921842,1,place,,,,,"Grosse Pointe",MI,"Wayne County",48230,US,"TIGER/Line® dataset from the US Census Bureau"
Michigan,Houghton,500,47.105336,-88.548157,1,place,,,,,Houghton,MI,"Houghton County",49931,US,"TIGER/Line® dataset from the US Census Bureau"
Michigan,Kalamazoo,1000,42.264543,-85.561545,1,place,,,,,Kalamazoo,MI,"Kalamazoo County",49001,US,"TIGER/Line® dataset from the US Census Bureau"
Michigan,Lansing,10000,42.599184,-84.371973,1,place,,,,,Lansing,MI,"Ingham County",48901,US,"TIGER/Line® dataset from the US Census Bureau"
Michigan,Marquette,500,46.54354,-87.39542,1,place,,,,,Marquette,MI,"Marquette County",49855,US,"TIGER/Line® dataset from the US Census Bureau"
Michigan,Midland,400,43.626132,-84.33803,1,place,,,,,Midland,MI,"Midland County",48640,US,"TIGER/Line® dataset from the US Census Bureau"
Michigan,"Sault Ste Marie",40,43.046851,-84.900482,0.67,place,,,,,Muir,MI,"Ionia County",48860,US,"TIGER/Line® dataset from the US Census Bureau"
Michigan,Tecumseh,35,42.008398,-83.922214,1,place,,,,,Tecumseh,MI,"Lenawee County",49286,US,"TIGER/Line® dataset from the US Census Bureau"
Michigan,"Traverse City",3000,44.693963,-85.676342,1,place,,,,,"Traverse City",MI,"Grand Traverse County",49684,US,"TIGER/Line® dataset from the US Census Bureau"
Michigan,Ypsilanti,1500,42.202139,-83.620494,1,place,,,,,Ypsilanti,MI,"Washtenaw County",48197,US,"TIGER/Line® dataset from the US Census Bureau"
Minnesota,Bemidji,375,47.571964,-94.801272,1,place,,,,,Bemidji,MN,"Beltrami County",56601,US,"TIGER/Line® dataset from the US Census Bureau"
Minnesota,Cambridge,22,45.602457,-93.263457,1,place,,,,,Cambridge,MN,"Isanti County",55008,US,"TIGER/Line® dataset from the US Census Bureau"
Minnesota,Duluth,1400,47.005566,-92.001934,1,place,,,,,Duluth,MN,"St. Louis County",55801,US,"TIGER/Line® dataset from the US Census Bureau"
Minnesota,Ely,50,47.918943,-92.020778,1,place,,,,,Ely,MN,"St. Louis County",55731,US,"TIGER/Line® dataset from the US Census Bureau"
Minnesota,"Grand Marais",120,47.872285,-90.42294,1,place,,,,,"Grand Marais",MN,"Cook County",55604,US,"TIGER/Line® dataset from the US Census Bureau"
Minnesota,Longville,67,46.994097,-94.243551,1,place,,,,,Longville,MN,"Cass County",56655,US,"TIGER/Line® dataset from the US Census Bureau"
Minnesota,Mankato,50,44.128325,-93.978863,1,place,,,,,Mankato,MN,"Blue Earth County",56001,US,"TIGER/Line® dataset from the US Census Bureau"
Minnesota,Minneapolis,100,44.984577,-93.269097,1,place,,,,,Minneapolis,MN,"Hennepin County",55401,US,"TIGER/Line® dataset from the US Census Bureau"
Minnesota,Morris,250,45.595739,-95.923233,1,place,,,,,Morris,MN,"Stevens County",56267,US,"TIGER/Line® dataset from the US Census Bureau"
Minnesota,Rochester,800,44.075285,-92.516916,1,place,,,,,Rochester,MN,"Olmsted County",55901,US,"TIGER/Line® dataset from the US Census Bureau"
Minnesota,"St. Cloud",40,45.519196,-94.330619,1,place,,,,,"Saint Cloud",MN,"Stearns County",56301,US,"TIGER/Line® dataset from the US Census Bureau"
Minnesota,"St. Paul",95000,44.951483,-93.090649,1,place,,,,,"Saint Paul",MN,"Ramsey County",55101,US,"TIGER/Line® dataset from the US Census Bureau"
Mississippi,Gulfport,300,30.382966,-89.102426,1,place,,,,,Gulfport,MS,"Harrison County",39501,US,"TIGER/Line® dataset from the US Census Bureau"
Mississippi,Hattiesburg,0,31.245138,-89.28071,1,place,,,,,Hattiesburg,MS,"Forrest County",39401,US,"TIGER/Line® dataset from the US Census Bureau"
Mississippi,Jackson,1000,32.289656,-90.184201,1,place,,,,,Jackson,MS,"Hinds County",39201,US,"TIGER/Line® dataset from the US Census Bureau"
Mississippi,Oxford,450,34.330814,-89.483519,1,place,,,,,Oxford,MS,"Lafayette County",38655,US,"TIGER/Line® dataset from the US Census Bureau"
Missouri,Columbia,2000,38.894165,-92.274145,1,place,,,,,Columbia,MO,"Boone County",65201,US,"TIGER/Line® dataset from the US Census Bureau"
Missouri,"Kansas City",10000,39.102404,-94.598583,1,place,,,,,"Kansas City",MO,"Jackson County",64101,US,"TIGER/Line® dataset from the US Census Bureau"
Missouri,Springfield,2000,37.25807,-93.343673,1,place,,,,,Springfield,MO,"Greene County",65801,US,"TIGER/Line® dataset from the US Census Bureau"
Missouri,"St. Louis",13000,38.631501,-90.19231,1,place,,,,,"Saint Louis",MO,"St. Louis city",63101,US,"TIGER/Line® dataset from the US Census Bureau"
Montana,Bozeman,13,45.82641,-110.898799,1,place,,,,,Bozeman,MT,"Gallatin County",59715,US,"TIGER/Line® dataset from the US Census Bureau"
Montana,Helena,10000,46.527398,-112.21037,1,place,,,,,Helena,MT,"Lewis and Clark County",59601,US,"TIGER/Line® dataset from the US Census Bureau"
Montana,Missoula,85,46.856398,-114.014338,1,place,,,,,Missoula,MT,"Missoula County",59801,US,"TIGER/Line® dataset from the US Census Bureau"
Nebraska,Lincoln,2900,40.865142,-96.823133,1,place,,,,,Lincoln,NE,"Lancaster County",68501,US,"TIGER/Line® dataset from the US Census Bureau"
Nebraska,"Loup City",125,41.276435,-98.966954,1,place,,,,,"Loup City",NE,"Sherman County",68853,US,"TIGER/Line® dataset from the US Census Bureau"
Nebraska,Omaha,13000,41.291736,-96.171104,1,place,,,,,Omaha,NE,"Douglas County",68101,US,"TIGER/Line® dataset from the US Census Bureau"
Nevada,"Las Vegas",5000,36.17372,-115.10647,1,place,,,,,"Las Vegas",NV,"Clark County",89101,US,"TIGER/Line® dataset from the US Census Bureau"
Nevada,Reno,10000,39.525749,-119.813051,1,place,,,,,Reno,NV,"Washoe County",89501,US,"TIGER/Line® dataset from the US Census Bureau"
Nevada,Stateline,500,38.96745,-119.944,1,place,,,,,Stateline,NV,"Douglas County",89449,US,"TIGER/Line® dataset from the US Census Bureau"
"New Hampshire",Concord,1000,43.230314,-71.536101,1,place,,,,,Concord,NH,"Merrimack County",03301,US,"TIGER/Line® dataset from the US Census Bureau"
"New Hampshire",Francestown,134,42.98758,-71.81258,1,place,,,,,Francestown,NH,"Hillsborough County",03043,US,"TIGER/Line® dataset from the US Census Bureau"
"New Hampshire",Jackson,300,44.14423,-71.18091,1,place,,,,,Jackson,NH,"Carroll County",03846,US,"TIGER/Line® dataset from the US Census Bureau"
"New Hampshire",Keene,300,42.965044,-72.294803,1,place,,,,,Keene,NH,"Cheshire County",03431,US,"TIGER/Line® dataset from the US Census Bureau"
"New Hampshire",Lancaster,400,44.476575,-71.561225,1,place,,,,,Lancaster,NH,"Coos County",03584,US,"TIGER/Line® dataset from the US Census Bureau"
"New Hampshire",Portsmouth,4000,43.005895,-71.013202,1,place,,,,,Portsmouth,NH,"Rockingham County",00210,US,"TIGER/Line® dataset from the US Census Bureau"
"New Hampshire",Wilton,200,42.84704,-71.73784,1,place,,,,,Wilton,NH,"Hillsborough County",03086,US,"TIGER/Line® dataset from the US Census Bureau"
"New Jersey","Asbury Park",6000,40.250725,-74.048582,1,place,,,,,"Asbury Park",NJ,"Monmouth County",07712,US,"TIGER/Line® dataset from the US Census Bureau"
"New Jersey",Leonia,250,40.863499,-73.987132,1,place,,,,,Leonia,NJ,"Bergen County",07605,US,"TIGER/Line® dataset from the US Census Bureau"
"New Jersey","Mt. Laurel",20,39.955912,-74.91731,1,place,,,,,"Mount Laurel",NJ,"Burlington County",08054,US,"TIGER/Line® dataset from the US Census Bureau"
"New Jersey","Pequannock Township/Pompton Plains",900,40.948208,-74.295592,1,place,,,,,Pequannock,NJ,"Morris County",07440,US,"TIGER/Line® dataset from the US Census Bureau"
"New Jersey","Red Bank",200,40.358409,-74.068143,1,place,,,,,"Red Bank",NJ,"Monmouth County",07701,US,"TIGER/Line® dataset from the US Census Bureau"
"New Jersey",Sicklerville,200,39.747558,-74.970462,1,place,,,,,Sicklerville,NJ,"Camden County",08081,US,"TIGER/Line® dataset from the US Census Bureau"
"New Jersey","South Orange",200,40.745772,-74.267541,1,place,,,,,"South Orange",NJ,"Essex County",07079,US,"TIGER/Line® dataset from the US Census Bureau"
"New Jersey",Trenton,6750,40.280531,-74.712018,1,place,,,,,Trenton,NJ,"Mercer County",08601,US,"TIGER/Line® dataset from the US Census Bureau"
"New Jersey",Westfield,1000,40.652851,-74.346764,1,place,,,,,Westfield,NJ,"Union County",07090,US,"TIGER/Line® dataset from the US Census Bureau"
"New Jersey",Wyckoff,400,40.998387,-74.165733,1,place,,,,,Wyckoff,NJ,"Bergen County",07481,US,"TIGER/Line® dataset from the US Census Bureau"
"New Mexico",Albuquerque,10000,35.199592,-106.644831,1,place,,,,,Albuquerque,NM,"Bernalillo County",87101,US,"TIGER/Line® dataset from the US Census Bureau"
"New Mexico",Deming,48,32.079682,-107.683073,1,place,,,,,Deming,NM,"Luna County",88030,US,"TIGER/Line® dataset from the US Census Bureau"
"New Mexico","Las Cruces",1500,32.290052,-106.753893,1,place,,,,,"Las Cruces",NM,"Doña Ana County",88001,US,"TIGER/Line® dataset from the US Census Bureau"
"New Mexico","Santa Fe",12500,35.697473,-105.982146,1,place,,,,,"Santa Fe",NM,"Santa Fe County",87501,US,"TIGER/Line® dataset from the US Census Bureau"
"New York",Albany,7000,42.614852,-73.970812,1,place,,,,,Albany,NY,"Albany County",12201,US,"TIGER/Line® dataset from the US Census Bureau"
"New York",Binghamton,3000,42.165629,-75.890685,1,place,,,,,Binghamton,NY,"Broome County",13901,US,"TIGER/Line® dataset from the US Census Bureau"
"New York",Buffalo,4500,42.89606,-78.886424,1,place,,,,,Buffalo,NY,"Erie County",14201,US,"TIGER/Line® dataset from the US Census Bureau"
"New York",Canton,135,44.574484,-75.059713,1,place,,,,,Canton,NY,"St. Lawrence County",13617,US,"TIGER/Line® dataset from the US Census Bureau"
"New York",Cobleskill,350,42.67785,-74.48542,1,place,,,,,Cobleskill,NY,"Schoharie County",12043,US,"TIGER/Line® dataset from the US Census Bureau"
"New York",Cooperstown,200,42.714065,-74.890929,1,place,,,,,Cooperstown,NY,"Otsego County",13326,US,"TIGER/Line® dataset from the US Census Bureau"
"New York",Delhi,200,42.293718,-74.920671,1,place,,,,,Delhi,NY,"Delaware County",13753,US,"TIGER/Line® dataset from the US Census Bureau"
"New York",Fredonia,70,42.412217,-79.319254,1,place,,,,,Fredonia,NY,"Chautauqua County",14063,US,"TIGER/Line® dataset from the US Census Bureau"
"New York","Glens Falls",1500,43.30952,-73.64401,1,place,,,,,"Glens Falls",NY,"Warren County",12801,US,"TIGER/Line® dataset from the US Census Bureau"
"New York",Hudson,2500,42.184313,-73.742997,1,place,,,,,Hudson,NY,"Columbia County",12534,US,"TIGER/Line® dataset from the US Census Bureau"
"New York",Ithaca,10000,42.402794,-76.483999,1,place,,,,,Ithaca,NY,"Tompkins County",14850,US,"TIGER/Line® dataset from the US Census Bureau"
"New York","Lewis County",236,44.27505,-73.56569,1,place,,,,,Lewis,NY,"Essex County",12950,US,"TIGER/Line® dataset from the US Census Bureau"
"New York","New York City",400000,40.68863,-74.018244,1,place,,,,,"New York",NY,"New York County",10004,US,"TIGER/Line® dataset from the US Census Bureau"
"New York",Oneonta,500,42.461688,-75.096727,1,place,,,,,Oneonta,NY,"Otsego County",13820,US,"TIGER/Line® dataset from the US Census Bureau"
"New York",Plattsburgh,200,44.704021,-73.471148,1,place,,,,,Plattsburgh,NY,"Clinton County",12901,US,"TIGER/Line® dataset from the US Census Bureau"
"New York","Port Jefferson",2000,40.94649,-73.06927,1,place,,,,,"Port Jefferson",NY,"Suffolk County",11777,US,"TIGER/Line® dataset from the US Census Bureau"
"New York","Port Jervis",425,41.37509,-74.69266,1,place,,,,,"Port Jervis",NY,"Orange County",12771,US,"TIGER/Line® dataset from the US Census Bureau"
"New York",Poughkeepsie,5000,41.701908,-73.911521,1,place,,,,,Poughkeepsie,NY,"Dutchess County",12601,US,"TIGER/Line® dataset from the US Census Bureau"
"New York",Rochester,1500,43.286024,-77.684264,1,place,,,,,Rochester,NY,"Monroe County",14601,US,"TIGER/Line® dataset from the US Census Bureau"
"New York","Sag Harbor",250,40.99788,-72.29258,1,place,,,,,"Sag Harbor",NY,"Suffolk County",11963,US,"TIGER/Line® dataset from the US Census Bureau"
"New York","Seneca Falls",10000,42.905264,-76.794921,1,place,,,,,"Seneca Falls",NY,"Seneca County",13148,US,"TIGER/Line® dataset from the US Census Bureau"
"New York",Syracuse,2000,43.02143,-76.197701,1,place,,,,,Syracuse,NY,"Onondaga County",13201,US,"TIGER/Line® dataset from the US Census Bureau"
"New York",Utica,100,43.077369,-75.233208,1,place,,,,,Utica,NY,"Oneida County",13501,US,"TIGER/Line® dataset from the US Census Bureau"
"New York",Watertown,250,43.968892,-75.906501,1,place,,,,,Watertown,NY,"Jefferson County",13601,US,"TIGER/Line® dataset from the US Census Bureau"
"New York",Woodstock,1000,42.04136,-74.11762,1,place,,,,,Woodstock,NY,"Ulster County",12498,US,"TIGER/Line® dataset from the US Census Bureau"
"North Carolina",Asheville,8500,35.602711,-82.567281,1,place,,,,,Asheville,NC,"Buncombe County",28801,US,"TIGER/Line® dataset from the US Census Bureau"
"North Carolina","Black Mountain",100,35.6179,-82.32123,1,place,,,,,"Black Mountain",NC,"Buncombe County",28711,US,"TIGER/Line® dataset from the US Census Bureau"
"North Carolina",Charlotte,25000,35.26002,-80.804151,1,place,,,,,Charlotte,NC,"Mecklenburg County",28201,US,"TIGER/Line® dataset from the US Census Bureau"
"North Carolina",Greensboro,4500,36.069144,-79.765156,1,place,,,,,Greensboro,NC,"Guilford County",27401,US,"TIGER/Line® dataset from the US Census Bureau"
"North Carolina",Hillsborough,0,36.077432,-79.085469,1,place,,,,,Hillsborough,NC,"Orange County",27278,US,"TIGER/Line® dataset from the US Census Bureau"
"North Carolina",Mooresville,70,35.58458,-80.778871,1,place,,,,,Mooresville,NC,"Iredell County",28115,US,"TIGER/Line® dataset from the US Census Bureau"
"North Carolina",Morganton,500,36.029833,-79.49161,0.8,place,,,,,Morgantown,NC,"Alamance County",27215,US,"TIGER/Line® dataset from the US Census Bureau"
"North Carolina","New Bern",600,35.125849,-76.977181,1,place,,,,,"New Bern",NC,"Craven County",28560,US,"TIGER/Line® dataset from the US Census Bureau"
"North Carolina",Raleigh,17000,35.773632,-78.634457,1,place,,,,,Raleigh,NC,"Wake County",27601,US,"TIGER/Line® dataset from the US Census Bureau"
"North Carolina",Wilmington,3000,34.271985,-77.963628,1,place,,,,,Wilmington,NC,"New Hanover County",28401,US,"TIGER/Line® dataset from the US Census Bureau"
"North Carolina",Winston-Salem,0,36.027482,-80.20728,1,place,,,,,Winston-Salem,NC,"Forsyth County",27150,US,"TIGER/Line® dataset from the US Census Bureau"
"North Dakota",Bismarck,500,46.816035,-100.700296,1,place,,,,,Bismarck,ND,"Burleigh County",58501,US,"TIGER/Line® dataset from the US Census Bureau"
"North Dakota",Fargo,3000,46.927094,-96.834703,1,place,,,,,Fargo,ND,"Cass County",58102,US,"TIGER/Line® dataset from the US Census Bureau"
"North Dakota","Grand Forks",304,47.866638,-97.141144,1,place,,,,,"Grand Forks",ND,"Grand Forks County",58201,US,"TIGER/Line® dataset from the US Census Bureau"
Ohio,Athens,175,39.339279,-82.013803,1,place,,,,,Athens,OH,"Athens County",45701,US,"TIGER/Line® dataset from the US Census Bureau"
Ohio,Chillicothe,1000,39.337384,-82.991332,1,place,,,,,Chillicothe,OH,"Ross County",45601,US,"TIGER/Line® dataset from the US Census Bureau"
Ohio,Cincinnati,7000,39.166759,-84.53822,1,place,,,,,Cincinnati,OH,"Hamilton County",45201,US,"TIGER/Line® dataset from the US Census Bureau"
Ohio,Cleveland,15000,41.489381,-81.667486,1,place,,,,,Cleveland,OH,"Cuyahoga County",44101,US,"TIGER/Line® dataset from the US Census Bureau"
Ohio,Columbus,3000,40.100924,-83.013402,1,place,,,,,Columbus,OH,"Franklin County",43085,US,"TIGER/Line® dataset from the US Census Bureau"
Ohio,Dayton,3000,39.750471,-84.268593,1,place,,,,,Dayton,OH,"Montgomery County",45401,US,"TIGER/Line® dataset from the US Census Bureau"
Ohio,Kent,100,41.132323,-81.332781,1,place,,,,,Kent,OH,"Portage County",44240,US,"TIGER/Line® dataset from the US Census Bureau"
Ohio,Lakeside,300,39.922008,-82.517658,0.8,place,,,,,Lakeside,OH,"Fairfield County",43046,US,"TIGER/Line® dataset from the US Census Bureau"
Ohio,"Mount Vernon",25,40.37066,-82.481346,1,place,,,,,"Mount Vernon",OH,"Knox County",43050,US,"TIGER/Line® dataset from the US Census Bureau"
Ohio,Toledo,100,41.720684,-83.569359,1,place,,,,,Toledo,OH,"Lucas County",43601,US,"TIGER/Line® dataset from the US Census Bureau"
Ohio,Troy,175,40.062621,-84.226398,1,place,,,,,Troy,OH,"Miami County",45373,US,"TIGER/Line® dataset from the US Census Bureau"
Ohio,Wooster,750,40.830699,-81.895377,1,place,,,,,Wooster,OH,"Wayne County",44691,US,"TIGER/Line® dataset from the US Census Bureau"
Ohio,"Yellow Springs",250,39.80645,-83.88687,1,place,,,,,"Yellow Springs",OH,"Greene County",45387,US,"TIGER/Line® dataset from the US Census Bureau"
Oklahoma,"Oklahoma City",12000,35.491608,-97.562817,1,place,,,,,"Oklahoma City",OK,"Oklahoma County",73101,US,"TIGER/Line® dataset from the US Census Bureau"
Oklahoma,Tulsa,1000,36.039147,-95.868667,1,place,,,,,Tulsa,OK,"Tulsa County",74101,US,"TIGER/Line® dataset from the US Census Bureau"
Oregon,Ashland,8000,42.148098,-122.537356,1,place,,,,,Ashland,OR,"Jackson County",97520,US,"TIGER/Line® dataset from the US Census Bureau"
Oregon,Astoria,550,46.142206,-123.795996,1,place,,,,,Astoria,OR,"Clatsop County",97103,US,"TIGER/Line® dataset from the US Census Bureau"
Oregon,Bandon,65,43.088824,-124.389936,1,place,,,,,Bandon,OR,"Coos County",97411,US,"TIGER/Line® dataset from the US Census Bureau"
Oregon,Bend,5000,44.082037,-121.227125,1,place,,,,,Bend,OR,"Deschutes County",97701,US,"TIGER/Line® dataset from the US Census Bureau"
Oregon,Brookings,275,42.05,-124.28333,1,place,,,,,Brookings,OR,"Curry County",97415,US,"TIGER/Line® dataset from the US Census Bureau"
Oregon,Burns,20,43.554287,-118.874273,1,place,,,,,Burns,OR,"Harney County",97720,US,"TIGER/Line® dataset from the US Census Bureau"
Oregon,"Coos Bay",200,43.215143,-124.198358,1,place,,,,,"Coos Bay",OR,"Coos County",97420,US,"TIGER/Line® dataset from the US Census Bureau"
Oregon,Corvallis,100,44.639931,-123.275969,1,place,,,,,Corvallis,OR,"Benton County",97330,US,"TIGER/Line® dataset from the US Census Bureau"
Oregon,Eugene,7000,44.067988,-123.080181,1,place,,,,,Eugene,OR,"Lane County",97401,US,"TIGER/Line® dataset from the US Census Bureau"
Oregon,Florence,300,44.064723,-123.996747,1,place,,,,,Florence,OR,"Lane County",97439,US,"TIGER/Line® dataset from the US Census Bureau"
Oregon,Halfway,31,44.952248,-117.123753,1,place,,,,,Halfway,OR,"Baker County",97834,US,"TIGER/Line® dataset from the US Census Bureau"
Oregon,"Hood River",200,45.7054,-121.52146,1,place,,,,,"Hood River",OR,"Hood River County",97031,US,"TIGER/Line® dataset from the US Census Bureau"
Oregon,Joseph,300,45.406071,-117.073337,1,place,,,,,Joseph,OR,"Wallowa County",97846,US,"TIGER/Line® dataset from the US Census Bureau"
Oregon,"Klamath Falls",200,42.293293,-121.816873,1,place,,,,,"Klamath Falls",OR,"Klamath County",97601,US,"TIGER/Line® dataset from the US Census Bureau"
Oregon,"La Grande",400,45.29535,-118.164822,1,place,,,,,"La Grande",OR,"Union County",97850,US,"TIGER/Line® dataset from the US Census Bureau"
Oregon,McMinnville,700,45.187444,-123.237145,1,place,,,,,McMinnville,OR,"Yamhill County",97128,US,"TIGER/Line® dataset from the US Census Bureau"
Oregon,Newport,1500,44.63678,-124.05345,1,place,,,,,Newport,OR,"Lincoln County",97365,US,"TIGER/Line® dataset from the US Census Bureau"
Oregon,Pendleton,425,45.67208,-118.7886,1,place,,,,,Pendleton,OR,"Umatilla County",97801,US,"TIGER/Line® dataset from the US Census Bureau"
Oregon,"Port Orford",290,42.703155,-124.45094,1,place,,,,,"Port Orford",OR,"Curry County",97465,US,"TIGER/Line® dataset from the US Census Bureau"
Oregon,Portland,100000,45.507856,-122.690794,1,place,,,,,Portland,OR,"Multnomah County",97201,US,"TIGER/Line® dataset from the US Census Bureau"
Oregon,Salem,2000,44.94878,-123.003655,1,place,,,,,Salem,OR,"Marion County",97301,US,"TIGER/Line® dataset from the US Census Bureau"
Oregon,Sandy,0,45.388551,-122.172544,1,place,,,,,Sandy,OR,"Clackamas County",97055,US,"TIGER/Line® dataset from the US Census Bureau"
Oregon,Tillamook,300,45.461952,-123.740874,1,place,,,,,Tillamook,OR,"Tillamook County",97141,US,"TIGER/Line® dataset from the US Census Bureau"
Oregon,Welches,0,45.327305,-121.973561,1,place,,,,,Welches,OR,"Clackamas County",97067,US,"TIGER/Line® dataset from the US Census Bureau"
Pennsylvania,Beaver,300,40.69534,-80.30478,1,place,,,,,Beaver,PA,"Beaver County",15009,US,"TIGER/Line® dataset from the US Census Bureau"
Pennsylvania,Bethlehem,500,40.58883,-75.351958,1,place,,,,,Bethlehem,PA,"Northampton County",18015,US,"TIGER/Line® dataset from the US Census Bureau"
Pennsylvania,Bloomsburg,50,41.005609,-76.430563,1,place,,,,,Bloomsburg,PA,"Columbia County",17815,US,"TIGER/Line® dataset from the US Census Bureau"
Pennsylvania,Doylestown,2000,40.31011,-75.12989,1,place,,,,,Doylestown,PA,"Bucks County",18901,US,"TIGER/Line® dataset from the US Census Bureau"
Pennsylvania,Erie,2500,42.121293,-80.088919,1,place,,,,,Erie,PA,"Erie County",16501,US,"TIGER/Line® dataset from the US Census Bureau"
Pennsylvania,Harrisburg,1100,40.258655,-76.894376,1,place,,,,,Harrisburg,PA,"Dauphin County",17101,US,"TIGER/Line® dataset from the US Census Bureau"
Pennsylvania,Indiana,150,40.621272,-79.080422,1,place,,,,,Indiana,PA,"Indiana County",15701,US,"TIGER/Line® dataset from the US Census Bureau"
Pennsylvania,Lancaster,100,40.076553,-76.31068,1,place,,,,,Lancaster,PA,"Lancaster County",17601,US,"TIGER/Line® dataset from the US Census Bureau"
Pennsylvania,Lewisburg,175,40.969642,-76.948072,1,place,,,,,Lewisburg,PA,"Union County",17837,US,"TIGER/Line® dataset from the US Census Bureau"
Pennsylvania,Philadelphia,50000,40.001811,-75.11787,1,place,,,,,Philadelphia,PA,"Philadelphia County",19019,US,"TIGER/Line® dataset from the US Census Bureau"
Pennsylvania,Pittsburgh,25000,40.47441,-79.950968,1,place,,,,,Pittsburgh,PA,"Allegheny County",15201,US,"TIGER/Line® dataset from the US Census Bureau"
Pennsylvania,Reading,100,40.357242,-75.940153,1,place,,,,,Reading,PA,"Berks County",19601,US,"TIGER/Line® dataset from the US Census Bureau"
Pennsylvania,Riegelsville,170,40.567316,-75.236191,1,place,,,,,Riegelsville,PA,"Bucks County",18077,US,"TIGER/Line® dataset from the US Census Bureau"
Pennsylvania,Selinsgrove,120,40.825914,-76.857577,1,place,,,,,Selinsgrove,PA,"Snyder County",17870,US,"TIGER/Line® dataset from the US Census Bureau"
Pennsylvania,Sharon,700,41.23311,-80.4934,1,place,,,,,Sharon,PA,"Mercer County",16146,US,"TIGER/Line® dataset from the US Census Bureau"
Pennsylvania,"State College",400,40.77893,-77.841359,1,place,,,,,"State College",PA,"Centre County",16801,US,"TIGER/Line® dataset from the US Census Bureau"
Pennsylvania,"West Chester",175,39.980107,-75.610503,1,place,,,,,"West Chester",PA,"Chester County",19380,US,"TIGER/Line® dataset from the US Census Bureau"
"Puerto Rico",Mayaguez,0,18.181938,-67.133802,1,place,,,,,Mayaguez,PR,"Mayagez Municipio",00680,US,"TIGER/Line® dataset from the US Census Bureau"
"Puerto Rico","San Juan",0,18.465901,-66.103568,1,place,,,,,"San Juan",PR,"San Juan Municipio",00901,US,"TIGER/Line® dataset from the US Census Bureau"
"Puerto Rico",Santurce,0,18.452679,-66.078113,0.9,place,,,,,Santurce,PR,"Mayagez Municipio",00907,US,"TIGER/Line® dataset from the US Census Bureau"
"Puerto Rico",Vieques,200,18.123347,-65.460356,1,place,,,,,Vieques,PR,"Vieques Municipio",00765,US,"TIGER/Line® dataset from the US Census Bureau"
"Rhode Island",Providence,5000,41.82275,-71.414451,1,place,,,,,Providence,RI,"Providence County",02901,US,"TIGER/Line® dataset from the US Census Bureau"
"South Carolina",Beaufort,0,32.424353,-80.565343,1,place,,,,,Beaufort,SC,"Beaufort County",29901,US,"TIGER/Line® dataset from the US Census Bureau"
"South Carolina",Charleston,2000,32.780326,-79.940844,1,place,,,,,Charleston,SC,"Charleston County",29401,US,"TIGER/Line® dataset from the US Census Bureau"
"South Carolina",Clemson,500,34.681567,-82.815832,1,place,,,,,Clemson,SC,"Pickens County",29631,US,"TIGER/Line® dataset from the US Census Bureau"
"South Carolina",Columbia,2500,33.987454,-81.024864,1,place,,,,,Columbia,SC,"Richland County",29201,US,"TIGER/Line® dataset from the US Census Bureau"
"South Carolina",Greenville,2000,34.848567,-82.402871,1,place,,,,,Greenville,SC,"Greenville County",29601,US,"TIGER/Line® dataset from the US Census Bureau"
"South Dakota",Pierre,130,44.334073,-100.094195,1,place,,,,,Pierre,SD,"Hughes County",57501,US,"TIGER/Line® dataset from the US Census Bureau"
"South Dakota","Rapid City",1000,44.145868,-103.206866,1,place,,,,,"Rapid City",SD,"Pennington County",57701,US,"TIGER/Line® dataset from the US Census Bureau"
"South Dakota","Sioux Falls",3300,43.546358,-96.69063,1,place,,,,,"Sioux Falls",SD,"Minnehaha County",57101,US,"TIGER/Line® dataset from the US Census Bureau"
"South Dakota",Vermillion,500,42.854124,-96.973318,1,place,,,,,Vermillion,SD,"Clay County",57069,US,"TIGER/Line® dataset from the US Census Bureau"
Tennessee,Chattanooga,3000,35.017818,-85.206426,1,place,,,,,Chattanooga,TN,"Hamilton County",37401,US,"TIGER/Line® dataset from the US Census Bureau"
Tennessee,Jonesborough,1000,36.289189,-82.489065,1,place,,,,,Jonesborough,TN,"Washington County",37659,US,"TIGER/Line® dataset from the US Census Bureau"
Tennessee,Knoxville,2000,36.032334,-83.884804,1,place,,,,,Knoxville,TN,"Knox County",37901,US,"TIGER/Line® dataset from the US Census Bureau"
Tennessee,Memphis,9000,35.169255,-89.990415,1,place,,,,,Memphis,TN,"Shelby County",37501,US,"TIGER/Line® dataset from the US Census Bureau"
Tennessee,Murfreesboro,0,35.762951,-86.372158,1,place,,,,,Murfreesboro,TN,"Rutherford County",37127,US,"TIGER/Line® dataset from the US Census Bureau"
Tennessee,Nashville,15000,36.165688,-86.778098,1,place,,,,,Nashville,TN,"Davidson County",37201,US,"TIGER/Line® dataset from the US Census Bureau"
Tennessee,"Oak Ridge",500,36.019381,-84.243175,1,place,,,,,"Oak Ridge",TN,"Anderson County",37830,US,"TIGER/Line® dataset from the US Census Bureau"
Texas,Abilene,200,32.576489,-99.665323,1,place,,,,,Abilene,TX,"Taylor County",79601,US,"TIGER/Line® dataset from the US Census Bureau"
Texas,Alpine,96,30.357926,-103.66029,1,place,,,,,Alpine,TX,"Brewster County",79830,US,"TIGER/Line® dataset from the US Census Bureau"
Texas,Amarillo,500,35.20603,-101.839602,1,place,,,,,Amarillo,TX,"Potter County",79101,US,"TIGER/Line® dataset from the US Census Bureau"
Texas,Austin,45000,30.326374,-97.771258,1,place,,,,,Austin,TX,"Travis County",73301,US,"TIGER/Line® dataset from the US Census Bureau"
Texas,Beaumont,200,30.073712,-94.109705,1,place,,,,,Beaumont,TX,"Jefferson County",77701,US,"TIGER/Line® dataset from the US Census Bureau"
Texas,Brownsville,300,25.963264,-97.550453,1,place,,,,,Brownsville,TX,"Cameron County",78520,US,"TIGER/Line® dataset from the US Census Bureau"
Texas,"College Station",50,30.609093,-96.325984,1,place,,,,,"College Station",TX,"Brazos County",77840,US,"TIGER/Line® dataset from the US Census Bureau"
Texas,"Corpus Christi",24,27.797802,-97.399067,1,place,,,,,"Corpus Christi",TX,"Nueces County",78401,US,"TIGER/Line® dataset from the US Census Bureau"
Texas,Dallas,5000,32.781179,-96.790329,1,place,,,,,Dallas,TX,"Dallas County",75201,US,"TIGER/Line® dataset from the US Census Bureau"
Texas,Denton,2500,33.220974,-97.146038,1,place,,,,,Denton,TX,"Denton County",76201,US,"TIGER/Line® dataset from the US Census Bureau"
Texas,"Eagle Pass",60,28.781057,-100.312766,1,place,,,,,"Eagle Pass",TX,"Maverick County",78852,US,"TIGER/Line® dataset from the US Census Bureau"
Texas,"El Paso",1000,31.763608,-106.484592,1,place,,,,,"El Paso",TX,"El Paso County",79901,US,"TIGER/Line® dataset from the US Census Bureau"
Texas,"Fort Worth",7000,32.771419,-97.291484,1,place,,,,,"Fort Worth",TX,"Tarrant County",76101,US,"TIGER/Line® dataset from the US Census Bureau"
Texas,Houston,22000,29.813142,-95.309789,1,place,,,,,Houston,TX,"Harris County",77001,US,"TIGER/Line® dataset from the US Census Bureau"
Texas,Lubbock,350,33.588771,-101.850445,1,place,,,,,Lubbock,TX,"Lubbock County",79401,US,"TIGER/Line® dataset from the US Census Bureau"
Texas,Marfa,80,30.351902,-104.018475,1,place,,,,,Marfa,TX,"Presidio County",79843,US,"TIGER/Line® dataset from the US Census Bureau"
Texas,Midland,50,31.992384,-102.081464,1,place,,,,,Midland,TX,"Midland County",79701,US,"TIGER/Line® dataset from the US Census Bureau"
Texas,Nacogdoches,250,31.558383,-94.504452,1,place,,,,,Nacogdoches,TX,"Nacogdoches County",75961,US,"TIGER/Line® dataset from the US Census Bureau"
Texas,"San Antonio",1500,29.468413,-98.528889,1,place,,,,,"San Antonio",TX,"Bexar County",78201,US,"TIGER/Line® dataset from the US Census Bureau"
Texas,"Wichita Falls",175,33.905544,-98.479881,1,place,,,,,"Wichita Falls",TX,"Wichita County",76301,US,"TIGER/Line® dataset from the US Census Bureau"
"United States Virgin Islands","St. Croix",500,0,0,0,,,,,,,,,,,
"United States Virgin Islands","St. John",200,0,0,0,,,,,,,,,,,
"United States Virgin Islands","St. Thomas",300,0,0,0,,,,,,,,,,,
Utah,Bluff,48,37.29134,-109.5698,1,place,,,,,Bluff,UT,"San Juan County",84512,US,"TIGER/Line® dataset from the US Census Bureau"
Utah,Kanab,175,37.04749,-112.52631,1,place,,,,,Kanab,UT,"Kane County",84741,US,"TIGER/Line® dataset from the US Census Bureau"
Utah,Logan,50,41.717722,-111.836493,1,place,,,,,Logan,UT,"Cache County",84321,US,"TIGER/Line® dataset from the US Census Bureau"
Utah,Moab,275,38.5804,-109.54019,1,place,,,,,Moab,UT,"Grand County",84532,US,"TIGER/Line® dataset from the US Census Bureau"
Utah,Ogden,300,41.244261,-112.007924,1,place,,,,,Ogden,UT,"Weber County",84201,US,"TIGER/Line® dataset from the US Census Bureau"
Utah,"Park City",8000,40.652531,-111.501916,1,place,,,,,"Park City",UT,"Summit County",84060,US,"TIGER/Line® dataset from the US Census Bureau"
Utah,"Saint George",1400,37.185679,-113.609837,1,place,,,,,"Saint George",UT,"Washington County",84770,US,"TIGER/Line® dataset from the US Census Bureau"
Utah,"Salt Lake City",5700,40.756095,-111.900719,1,place,,,,,"Salt Lake City",UT,"Salt Lake County",84101,US,"TIGER/Line® dataset from the US Census Bureau"
Vermont,Brattleboro,250,42.884281,-72.760753,1,place,,,,,Brattleboro,VT,"Windham County",05301,US,"TIGER/Line® dataset from the US Census Bureau"
Vermont,Killington,82,43.656951,-72.782713,1,place,,,,,Killington,VT,"Rutland County",05751,US,"TIGER/Line® dataset from the US Census Bureau"
Vermont,Montpelier,20000,44.19906,-72.559638,1,place,,,,,Montpelier,VT,"Washington County",05601,US,"TIGER/Line® dataset from the US Census Bureau"
Virginia,Alexandria,17,38.819853,-77.059645,1,place,,,,,Alexandria,VA,"Alexandria city",22301,US,"TIGER/Line® dataset from the US Census Bureau"
Virginia,Arlington,0,38.885484,-77.099113,1,place,,,,,Arlington,VA,"Arlington County",22201,US,"TIGER/Line® dataset from the US Census Bureau"
Virginia,Charlottesville,1000,38.026588,-78.48045,1,place,,,,,Charlottesville,VA,"Charlottesville city",22902,US,"TIGER/Line® dataset from the US Census Bureau"
Virginia,Floyd,200,36.895714,-80.327524,1,place,,,,,Floyd,VA,"Floyd County",24091,US,"TIGER/Line® dataset from the US Census Bureau"
Virginia,Norfolk,2000,36.895911,-76.208521,1,place,,,,,Norfolk,VA,"Norfolk city",23501,US,"TIGER/Line® dataset from the US Census Bureau"
Virginia,Onley,60,37.69096,-75.71604,1,place,,,,,Onley,VA,"Accomack County",23418,US,"TIGER/Line® dataset from the US Census Bureau"
Virginia,Richmond,2000,37.524246,-77.493157,1,place,,,,,Richmond,VA,"Richmond city",23218,US,"TIGER/Line® dataset from the US Census Bureau"
Virginia,Roanoke,4000,37.274175,-79.95786,1,place,,,,,Roanoke,VA,"Roanoke city",24001,US,"TIGER/Line® dataset from the US Census Bureau"
Virginia,"St. John",200,0,0,0,,,,,,,,,,,
Virginia,Staunton,100,38.157368,-79.065116,1,place,,,,,Staunton,VA,"Staunton city",24401,US,"TIGER/Line® dataset from the US Census Bureau"
Virginia,Williamsburg,850,37.310451,-76.746769,1,place,,,,,Williamsburg,VA,"Williamsburg city",23186,US,"TIGER/Line® dataset from the US Census Bureau"
Virginia,Winchester,1000,39.169668,-78.16856,1,place,,,,,Winchester,VA,"Winchester city",22601,US,"TIGER/Line® dataset from the US Census Bureau"
Virginia,Woodstock,400,38.918791,-78.512429,1,place,,,,,Woodstock,VA,"Shenandoah County",22664,US,"TIGER/Line® dataset from the US Census Bureau"
Washington,Anacortes,1200,48.499172,-122.607111,1,place,,,,,Anacortes,WA,"Skagit County",98221,US,"TIGER/Line® dataset from the US Census Bureau"
Washington,"Bainbridge Island",12,47.647774,-122.538016,1,place,,,,,"Bainbridge Island",WA,"Kitsap County",98110,US,"TIGER/Line® dataset from the US Census Bureau"
Washington,Bellingham,7500,48.754092,-122.508129,1,place,,,,,Bellingham,WA,"Whatcom County",98225,US,"TIGER/Line® dataset from the US Census Bureau"
Washington,Chelan,450,47.876985,-120.07775,1,place,,,,,Chelan,WA,"Chelan County",98816,US,"TIGER/Line® dataset from the US Census Bureau"
Washington,Eastsound,250,48.659128,-122.867603,1,place,,,,,Eastsound,WA,"San Juan County",98245,US,"TIGER/Line® dataset from the US Census Bureau"
Washington,Ephrata,250,47.31764,-119.55365,1,place,,,,,Ephrata,WA,"Grant County",98823,US,"TIGER/Line® dataset from the US Census Bureau"
Washington,Forks,35,47.95036,-124.38549,1,place,,,,,Forks,WA,"Clallam County",98331,US,"TIGER/Line® dataset from the US Census Bureau"
Washington,"Friday Harbor",1500,48.538181,-123.068323,1,place,,,,,"Friday Harbor",WA,"San Juan County",98250,US,"TIGER/Line® dataset from the US Census Bureau"
Washington,Issaquah,56,47.497419,-122.010699,1,place,,,,,Issaquah,WA,"King County",98027,US,"TIGER/Line® dataset from the US Census Bureau"
Washington,Kingston,40,47.834483,-122.547078,1,place,,,,,Kingston,WA,"Kitsap County",98346,US,"TIGER/Line® dataset from the US Census Bureau"
Washington,Langley,1500,48.031815,-122.458831,1,place,,,,,Langley,WA,"Island County",98260,US,"TIGER/Line® dataset from the US Census Bureau"
Washington,Longview,200,46.181872,-123.057597,1,place,,,,,Longview,WA,"Cowlitz County",98632,US,"TIGER/Line® dataset from the US Census Bureau"
Washington,"Mount Vernon",100,48.435248,-122.208184,1,place,,,,,"Mount Vernon",WA,"Skagit County",98273,US,"TIGER/Line® dataset from the US Census Bureau"
Washington,"Ocean Shores",150,47.071971,-124.152461,1,place,,,,,"Ocean Shores",WA,"Grays Harbor County",98569,US,"TIGER/Line® dataset from the US Census Bureau"
Washington,Olympia,10000,46.984767,-122.869079,1,place,,,,,Olympia,WA,"Thurston County",98501,US,"TIGER/Line® dataset from the US Census Bureau"
Washington,"Port Angeles",200,48.051108,-123.360411,1,place,,,,,"Port Angeles",WA,"Clallam County",98362,US,"TIGER/Line® dataset from the US Census Bureau"
Washington,"Port Townsend",300,48.018572,-122.849683,1,place,,,,,"Port Townsend",WA,"Jefferson County",98368,US,"TIGER/Line® dataset from the US Census Bureau"
Washington,Richland,1000,46.28569,-119.28446,1,place,,,,,Richland,WA,"Benton County",99352,US,"TIGER/Line® dataset from the US Census Bureau"
Washington,Seattle,175000,47.432251,-121.803388,1,place,,,,,Seattle,WA,"King County",98060,US,"TIGER/Line® dataset from the US Census Bureau"
Washington,Sequim,100,48.06773,-123.080362,1,place,,,,,Sequim,WA,"Clallam County",98382,US,"TIGER/Line® dataset from the US Census Bureau"
Washington,Spokane,8000,47.66264,-117.435997,1,place,,,,,Spokane,WA,"Spokane County",99201,US,"TIGER/Line® dataset from the US Census Bureau"
Washington,Twisp,800,48.36348,-120.1223,1,place,,,,,Twisp,WA,"Okanogan County",98856,US,"TIGER/Line® dataset from the US Census Bureau"
Washington,Vancouver,150,45.678996,-122.720499,1,place,,,,,Vancouver,WA,"Clark County",98660,US,"TIGER/Line® dataset from the US Census Bureau"
Washington,Vashon,250,47.41219,-122.47255,1,place,,,,,Vashon,WA,"King County",98070,US,"TIGER/Line® dataset from the US Census Bureau"
Washington,"Walla Walla",2000,46.1341,-118.291407,1,place,,,,,"Walla Walla",WA,"Walla Walla County",99362,US,"TIGER/Line® dataset from the US Census Bureau"
Washington,Wenatchee,2000,47.573816,-120.351884,1,place,,,,,Wenatchee,WA,"Chelan County",98801,US,"TIGER/Line® dataset from the US Census Bureau"
Washington,Yakima,850,46.722625,-120.406039,1,place,,,,,Yakima,WA,"Yakima County",98901,US,"TIGER/Line® dataset from the US Census Bureau"
"Washington DC","Washington DC",500000,38.911936,-77.016719,1,place,,,,,Washington,DC,"District of Columbia",20001,US,"TIGER/Line® dataset from the US Census Bureau"
"West Virginia",Charleston,3000,38.350719,-81.630359,1,place,,,,,Charleston,WV,"Kanawha County",25301,US,"TIGER/Line® dataset from the US Census Bureau"
"West Virginia",Fairmont,100,39.494115,-80.221282,1,place,,,,,Fairmont,WV,"Marion County",26554,US,"TIGER/Line® dataset from the US Census Bureau"
Wisconsin,Appleton,3,44.275702,-88.370856,1,place,,,,,Appleton,WI,"Outagamie County",54911,US,"TIGER/Line® dataset from the US Census Bureau"
Wisconsin,Bayfield,400,46.853517,-90.915934,1,place,,,,,Bayfield,WI,"Bayfield County",54814,US,"TIGER/Line® dataset from the US Census Bureau"
Wisconsin,"Eau Claire",250,44.75653,-91.473097,1,place,,,,,"Eau Claire",WI,"Eau Claire County",54701,US,"TIGER/Line® dataset from the US Census Bureau"
Wisconsin,"Fort Atkinson",200,42.926467,-88.841626,1,place,,,,,"Fort Atkinson",WI,"Jefferson County",53538,US,"TIGER/Line® dataset from the US Census Bureau"
Wisconsin,"Green Bay",200,44.480778,-88.016063,1,place,,,,,"Green Bay",WI,"Brown County",54301,US,"TIGER/Line® dataset from the US Census Bureau"
Wisconsin,Hillsboro,40,43.6522,-90.34402,1,place,,,,,Hillsboro,WI,"Vernon County",54634,US,"TIGER/Line® dataset from the US Census Bureau"
Wisconsin,"La Crosse",88,43.806197,-91.140529,1,place,,,,,"La Crosse",WI,"La Crosse County",54601,US,"TIGER/Line® dataset from the US Census Bureau"
Wisconsin,Madison,8750,43.06956,-89.423861,1,place,,,,,Madison,WI,"Dane County",53701,US,"TIGER/Line® dataset from the US Census Bureau"
Wisconsin,Marquette,1000,43.746464,-89.138441,1,place,,,,,Marquette,WI,"Green Lake County",53947,US,"TIGER/Line® dataset from the US Census Bureau"
Wisconsin,Menomonie,400,44.867809,-91.943198,1,place,,,,,Menomonie,WI,"Dunn County",54751,US,"TIGER/Line® dataset from the US Census Bureau"
Wisconsin,Milwaukee,1,43.011264,-87.958409,1,place,,,,,Milwaukee,WI,"Milwaukee County",53201,US,"TIGER/Line® dataset from the US Census Bureau"
Wisconsin,Plymouth,200,43.768454,-87.975773,1,place,,,,,Plymouth,WI,"Sheboygan County",53073,US,"TIGER/Line® dataset from the US Census Bureau"
Wisconsin,Sheboygan,300,43.71011,-87.735217,1,place,,,,,Sheboygan,WI,"Sheboygan County",53081,US,"TIGER/Line® dataset from the US Census Bureau"
Wisconsin,Wausau,200,44.963304,-89.704051,1,place,,,,,Wausau,WI,"Marathon County",54401,US,"TIGER/Line® dataset from the US Census Bureau"
Wyoming,Casper,650,42.859875,-106.312561,1,place,,,,,Casper,WY,"Natrona County",82601,US,"TIGER/Line® dataset from the US Census Bureau"
Wyoming,Cheyenne,1750,41.092356,-104.936269,1,place,,,,,Cheyenne,WY,"Laramie County",82001,US,"TIGER/Line® dataset from the US Census Bureau"
Wyoming,Cody,500,44.52634,-109.05653,1,place,,,,,Cody,WY,"Park County",82414,US,"TIGER/Line® dataset from the US Census Bureau"
Wyoming,"Jackson Hole",1000,43.452793,-110.739266,1,place,,,,,Jackson,WY,"Teton County",83001,US,"TIGER/Line® dataset from the US Census Bureau"
Wyoming,Lander,350,42.920832,-108.591264,1,place,,,,,Lander,WY,"Fremont County",82520,US,"TIGER/Line® dataset from the US Census Bureau"
Wyoming,Pinedale,150,42.849757,-109.938968,1,place,,,,,Pinedale,WY,"Sublette County",82941,US,"TIGER/Line® dataset from the US Census Bureau"
Wyoming,"Rock Springs",0,41.634515,-109.149045,1,place,,,,,"Rock Springs",WY,"Sweetwater County",82901,US,"TIGER/Line® dataset from the US Census Bureau"
